{
  "stores": [
    {
      "id": 1,
      "name": "Park Row at Beekman St",
      "address": "38 Park Row",
      "city": "New York",
      "openingHours": "10:00 - 14:00 and 17:00 - 20:30"
    },
    {
      "id": 2,
      "name": "Store Alcalá",
      "address": "Calle de Alcalá, 21",
      "city": "Madrid",
      "openingHours": "10:00 - 14:00 and 17:00 - 20:30"
    },
    {
      "id": 3,
      "name": "Chambers and West Broadway",
      "address": "125 Chambers Street",
      "city": "New York",
      "openingHours": "10:00 - 14:00 and 17:00 - 20:30"
    },
    {
      "id": 4,
      "name": "Covent Garden - Russell St",
      "address": "10 Russell Street",
      "city": "London",
      "openingHours": "10:00 - 14:00 and 17:00 - 20:30"
    },
    {
      "id": 5,
      "name": "Monmouth St",
      "address": "11 Monmouth Street",
      "city": "London",
      "openingHours": "10:00 - 14:00 and 17:00 - 20:30"
    }
  ],
  "categories": [
    {
      "id": 1,
      "name": "Varón"
    },
    {
      "id": 2,
      "name": "Mujer"
    },
    {
      "id": 3,
      "name": "Niño"
    }
  ],
  "products": [
    {
      "id": 1,
      "name": "Essential TypeScript 4: From Beginner to Pro",
      "price": 45,
      "description": "Learn the essentials and more of TypeScript, a popular superset of the JavaScript language that adds support for static typing. TypeScript combines the typing features of C# or Java.",
      "categoryId": 1,
      "stock": 1474
    },
    {
      "id": 2,
      "name": "Hackeando el cerebro de tus compradores: PsychoGrowth",
      "price": 5,
      "description": "En Hackeando del cerebro de tus compradores, Corti nos revela cómo muchas compañías crean productos digitales o procesos de venta capaces de conectar con la psicología del comprador.",
      "categoryId": 1,
      "stock": 986
    },
    {
      "id": 3,
      "name": "Angular Routing: Learn To Create client-side and SPA with Routing and Navigation",
      "price": 17,
      "description": "In this book, the reader will be able to focus on one concept of Angular in deep.",
      "categoryId": 1,
      "stock": 999
    },
    {
      "id": 4,
      "name": "SanDisk 128GB Ultra MicroSDXC UHS-I Memory Card with Adapter",
      "price": 19,
      "description": "Ideal for Android smartphones and tablets, and MIL cameras. SanDisk Memory Zone app for easy file management (Download and Installation Required).",
      "categoryId": 2,
      "stock": 997
    },
    {
      "id": 5,
      "name": "GoPro HERO9 Black - Waterproof Action Camera with Front LCD",
      "price": 399,
      "description": "5K Video - Shoot stunning video with up to 5K resolution, perfect for maintaining detail even when zooming in",
      "categoryId": 2,
      "stock": 1000
    },
    {
      "id": 6,
      "name": "CL3 Rated High-Speed 4K HDMI Cable - 6 Feet",
      "price": 7,
      "description": "HDMI A Male to A Male Cable: Supports Ethernet, 3D, 4K video and Audio Return Channel (ARC)",
      "categoryId": 2,
      "stock": 1000
    },
    {
      "id": 7,
      "name": "Logitech MK270 Wireless Keyboard and Mouse Combo",
      "price": 32,
      "description": "The USB receiver is conveniently located in the box, top flap. This wireless keyboard and mouse feature Logitech Advanced 2.4GHz technology with a range of up to 10 metres.",
      "categoryId": 3,
      "stock": 1000
    },
    {
      "id": 8,
      "name": "External CD Drive USB 3.0 Portable CD DVD +/-RW Drive DVD/CD ROM",
      "price": 20,
      "description": "Plug & play. Easy to use,powered by USB port. No external driver and Power needed. Just plug it into your USB port and the DVD driver will be detected",
      "categoryId": 3,
      "stock": 1000
    }
  ],
  "orders": [
    {
      "id": 1,
      "name": "Dominicode",
      "date": "01/12/1995",
      "shippingAddress": "Av. de la Granvia de Hospitalet, 115",
      "city": "Barcelona",
      "pickup": true
    },
    {
      "name": "Dominicode",
      "shippingAddress": "",
      "city": "",
      "date": "25/7/2023",
      "isDelivery": true,
      "id": 2
    },
    {
      "name": "Dominicode",
      "store": {
        "id": 5,
        "name": "Monmouth St",
        "address": "11 Monmouth Street",
        "city": "London",
        "openingHours": "10:00 - 14:00 and 17:00 - 20:30"
      },
      "date": "25/7/2023",
      "isDelivery": false,
      "id": 3
    },
    {
      "name": "Julio Alberto Lazarte",
      "store": {
        "id": 2,
        "name": "Store Alcalá",
        "address": "Calle de Alcalá, 21",
        "city": "Madrid",
        "openingHours": "10:00 - 14:00 and 17:00 - 20:30"
      },
      "date": "25/7/2023",
      "isDelivery": false,
      "id": 4
    },
    {
      "name": "Dominicode",
      "shippingAddress": "de 2323",
      "city": "ert",
      "date": "25/7/2023",
      "isDelivery": true,
      "id": 5
    },
    {
      "name": "Dominicode",
      "shippingAddress": "",
      "city": "",
      "date": "26/7/2023",
      "isDelivery": true,
      "id": 6
    },
    {
      "name": "Dominicode",
      "shippingAddress": "",
      "city": "",
      "date": "26/7/2023",
      "isDelivery": true,
      "id": 7
    },
    {
      "name": "Julio alberto",
      "shippingAddress": "RC^@",
      "city": "Tucumán",
      "date": "26/7/2023",
      "isDelivery": true,
      "id": 8
    },
    {
      "name": "Julio alberto",
      "store": {
        "id": 5,
        "name": "Monmouth St",
        "address": "11 Monmouth Street",
        "city": "London",
        "openingHours": "10:00 - 14:00 and 17:00 - 20:30"
      },
      "date": "27/7/2023",
      "isDelivery": false,
      "id": 9
    },
    {
      "name": "Julio alberto",
      "store": {
        "id": 3,
        "name": "Chambers and West Broadway",
        "address": "125 Chambers Street",
        "city": "New York",
        "openingHours": "10:00 - 14:00 and 17:00 - 20:30"
      },
      "date": "27/7/2023",
      "isDelivery": false,
      "id": 10
    },
    {
      "name": "Julio alberto",
      "store": {
        "id": 2,
        "name": "Store Alcalá",
        "address": "Calle de Alcalá, 21",
        "city": "Madrid",
        "openingHours": "10:00 - 14:00 and 17:00 - 20:30"
      },
      "date": "27/7/2023",
      "isDelivery": false,
      "id": 11
    },
    {
      "name": "Julio alberto",
      "store": {
        "id": 2,
        "name": "Store Alcalá",
        "address": "Calle de Alcalá, 21",
        "city": "Madrid",
        "openingHours": "10:00 - 14:00 and 17:00 - 20:30"
      },
      "date": "27/7/2023",
      "isDelivery": false,
      "id": 12
    },
    {
      "name": "Julio alberto",
      "store": {
        "id": 5,
        "name": "Monmouth St",
        "address": "11 Monmouth Street",
        "city": "London",
        "openingHours": "10:00 - 14:00 and 17:00 - 20:30"
      },
      "date": "27/7/2023",
      "isDelivery": false,
      "id": 13
    },
    {
      "name": "Julio alberto",
      "store": {
        "id": 3,
        "name": "Chambers and West Broadway",
        "address": "125 Chambers Street",
        "city": "New York",
        "openingHours": "10:00 - 14:00 and 17:00 - 20:30"
      },
      "date": "27/7/2023",
      "isDelivery": false,
      "id": 14
    },
    {
      "name": "Julio alberto",
      "store": {
        "id": 3,
        "name": "Chambers and West Broadway",
        "address": "125 Chambers Street",
        "city": "New York",
        "openingHours": "10:00 - 14:00 and 17:00 - 20:30"
      },
      "date": "27/7/2023",
      "isDelivery": false,
      "id": 15
    },
    {
      "name": "Julio alberto",
      "store": {
        "id": 5,
        "name": "Monmouth St",
        "address": "11 Monmouth Street",
        "city": "London",
        "openingHours": "10:00 - 14:00 and 17:00 - 20:30"
      },
      "date": "27/7/2023",
      "isDelivery": false,
      "id": 16
    },
    {
      "name": "Julio alberto",
      "store": {
        "id": 4,
        "name": "Covent Garden - Russell St",
        "address": "10 Russell Street",
        "city": "London",
        "openingHours": "10:00 - 14:00 and 17:00 - 20:30"
      },
      "date": "27/7/2023",
      "isDelivery": false,
      "id": 17
    },
    {
      "name": "Julio alberto",
      "store": {
        "id": 3,
        "name": "Chambers and West Broadway",
        "address": "125 Chambers Street",
        "city": "New York",
        "openingHours": "10:00 - 14:00 and 17:00 - 20:30"
      },
      "date": "27/7/2023",
      "isDelivery": false,
      "id": 18
    },
    {
      "name": "Julio alberto",
      "store": {
        "id": 1,
        "name": "Park Row at Beekman St",
        "address": "38 Park Row",
        "city": "New York",
        "openingHours": "10:00 - 14:00 and 17:00 - 20:30"
      },
      "date": "27/7/2023",
      "isDelivery": false,
      "id": 19
    },
    {
      "name": "Julio alberto",
      "store": {
        "id": 2,
        "name": "Store Alcalá",
        "address": "Calle de Alcalá, 21",
        "city": "Madrid",
        "openingHours": "10:00 - 14:00 and 17:00 - 20:30"
      },
      "date": "27/7/2023",
      "isDelivery": false,
      "id": 20
    },
    {
      "name": "Julio alberto",
      "store": {
        "id": 4,
        "name": "Covent Garden - Russell St",
        "address": "10 Russell Street",
        "city": "London",
        "openingHours": "10:00 - 14:00 and 17:00 - 20:30"
      },
      "date": "27/7/2023",
      "isDelivery": false,
      "id": 21
    },
    {
      "name": "Julio alberto",
      "store": {
        "id": 4,
        "name": "Covent Garden - Russell St",
        "address": "10 Russell Street",
        "city": "London",
        "openingHours": "10:00 - 14:00 and 17:00 - 20:30"
      },
      "date": "27/7/2023",
      "isDelivery": false,
      "id": 22
    },
    {
      "name": "Julio alberto",
      "store": {
        "id": 4,
        "name": "Covent Garden - Russell St",
        "address": "10 Russell Street",
        "city": "London",
        "openingHours": "10:00 - 14:00 and 17:00 - 20:30"
      },
      "date": "27/7/2023",
      "isDelivery": false,
      "id": 23
    },
    {
      "name": "Julio alberto",
      "store": {
        "id": 3,
        "name": "Chambers and West Broadway",
        "address": "125 Chambers Street",
        "city": "New York",
        "openingHours": "10:00 - 14:00 and 17:00 - 20:30"
      },
      "date": "27/7/2023",
      "isDelivery": false,
      "id": 24
    },
    {
      "name": "Julio alberto",
      "store": {
        "id": 3,
        "name": "Chambers and West Broadway",
        "address": "125 Chambers Street",
        "city": "New York",
        "openingHours": "10:00 - 14:00 and 17:00 - 20:30"
      },
      "date": "27/7/2023",
      "isDelivery": false,
      "id": 25
    },
    {
      "name": "Julio alberto",
      "store": {
        "id": 2,
        "name": "Store Alcalá",
        "address": "Calle de Alcalá, 21",
        "city": "Madrid",
        "openingHours": "10:00 - 14:00 and 17:00 - 20:30"
      },
      "date": "27/7/2023",
      "isDelivery": false,
      "id": 26
    },
    {
      "name": "Julio alberto",
      "store": {
        "id": 2,
        "name": "Store Alcalá",
        "address": "Calle de Alcalá, 21",
        "city": "Madrid",
        "openingHours": "10:00 - 14:00 and 17:00 - 20:30"
      },
      "date": "27/7/2023",
      "isDelivery": false,
      "id": 27
    },
    {
      "name": "Julio alberto",
      "store": {
        "id": 2,
        "name": "Store Alcalá",
        "address": "Calle de Alcalá, 21",
        "city": "Madrid",
        "openingHours": "10:00 - 14:00 and 17:00 - 20:30"
      },
      "date": "27/7/2023",
      "isDelivery": false,
      "id": 28
    },
    {
      "name": "Julio alberto",
      "store": {
        "id": 3,
        "name": "Chambers and West Broadway",
        "address": "125 Chambers Street",
        "city": "New York",
        "openingHours": "10:00 - 14:00 and 17:00 - 20:30"
      },
      "date": "27/7/2023",
      "isDelivery": false,
      "id": 29
    },
    {
      "name": "Julio alberto",
      "store": {
        "id": 3,
        "name": "Chambers and West Broadway",
        "address": "125 Chambers Street",
        "city": "New York",
        "openingHours": "10:00 - 14:00 and 17:00 - 20:30"
      },
      "date": "27/7/2023",
      "isDelivery": false,
      "id": 30
    },
    {
      "name": "Julio alberto",
      "shippingAddress": "fdfcbdfb",
      "city": "vvv",
      "date": "28/7/2023",
      "isDelivery": true,
      "id": 31
    },
    {
      "name": "Julio alberto",
      "shippingAddress": "",
      "city": "",
      "date": "28/7/2023",
      "isDelivery": true,
      "id": 32
    },
    {
      "name": "Julio alberto",
      "shippingAddress": "",
      "city": "",
      "date": "28/7/2023",
      "isDelivery": true,
      "id": 33
    },
    {
      "name": "Julio alberto",
      "store": {
        "id": 3,
        "name": "Chambers and West Broadway",
        "address": "125 Chambers Street",
        "city": "New York",
        "openingHours": "10:00 - 14:00 and 17:00 - 20:30"
      },
      "date": "28/7/2023",
      "isDelivery": false,
      "id": 34
    },
    {
      "name": "Julio alberto",
      "store": {
        "id": 3,
        "name": "Chambers and West Broadway",
        "address": "125 Chambers Street",
        "city": "New York",
        "openingHours": "10:00 - 14:00 and 17:00 - 20:30"
      },
      "date": "28/7/2023",
      "isDelivery": false,
      "id": 35
    },
    {
      "name": "Julio alberto",
      "store": {
        "id": 2,
        "name": "Store Alcalá",
        "address": "Calle de Alcalá, 21",
        "city": "Madrid",
        "openingHours": "10:00 - 14:00 and 17:00 - 20:30"
      },
      "date": "28/7/2023",
      "isDelivery": false,
      "id": 36
    },
    {
      "name": "Julio alberto",
      "store": {
        "id": 5,
        "name": "Monmouth St",
        "address": "11 Monmouth Street",
        "city": "London",
        "openingHours": "10:00 - 14:00 and 17:00 - 20:30"
      },
      "date": "28/7/2023",
      "isDelivery": false,
      "id": 37
    },
    {
      "name": "Julio alberto",
      "store": {
        "id": 1,
        "name": "Park Row at Beekman St",
        "address": "38 Park Row",
        "city": "New York",
        "openingHours": "10:00 - 14:00 and 17:00 - 20:30"
      },
      "date": "28/7/2023",
      "isDelivery": false,
      "id": 38
    },
    {
      "name": "Julio alberto",
      "store": {
        "id": 3,
        "name": "Chambers and West Broadway",
        "address": "125 Chambers Street",
        "city": "New York",
        "openingHours": "10:00 - 14:00 and 17:00 - 20:30"
      },
      "date": "28/7/2023",
      "isDelivery": false,
      "id": 39
    },
    {
      "name": "Julio alberto",
      "shippingAddress": "de 2323",
      "city": "5656",
      "date": "28/7/2023",
      "isDelivery": true,
      "id": 40
    },
    {
      "name": "Julio alberto",
      "shippingAddress": "6666",
      "city": "Tucumán",
      "date": "28/7/2023",
      "isDelivery": true,
      "id": 41
    },
    {
      "name": "Julio alberto",
      "shippingAddress": "6666",
      "city": "5656",
      "date": "28/7/2023",
      "isDelivery": true,
      "id": 42
    },
    {
      "name": "Julio alberto",
      "store": {
        "id": 3,
        "name": "Chambers and West Broadway",
        "address": "125 Chambers Street",
        "city": "New York",
        "openingHours": "10:00 - 14:00 and 17:00 - 20:30"
      },
      "date": "28/7/2023",
      "isDelivery": false,
      "id": 43
    },
    {
      "name": "Julio alberto",
      "store": {
        "id": 2,
        "name": "Store Alcalá",
        "address": "Calle de Alcalá, 21",
        "city": "Madrid",
        "openingHours": "10:00 - 14:00 and 17:00 - 20:30"
      },
      "date": "28/7/2023",
      "isDelivery": false,
      "id": 44
    },
    {
      "name": "Julio alberto",
      "store": {
        "id": 3,
        "name": "Chambers and West Broadway",
        "address": "125 Chambers Street",
        "city": "New York",
        "openingHours": "10:00 - 14:00 and 17:00 - 20:30"
      },
      "date": "28/7/2023",
      "isDelivery": false,
      "id": 45
    },
    {
      "name": "Julio alberto",
      "store": {
        "id": 2,
        "name": "Store Alcalá",
        "address": "Calle de Alcalá, 21",
        "city": "Madrid",
        "openingHours": "10:00 - 14:00 and 17:00 - 20:30"
      },
      "date": "28/7/2023",
      "isDelivery": false,
      "id": 46
    },
    {
      "name": "Julio alberto",
      "store": {
        "id": 4,
        "name": "Covent Garden - Russell St",
        "address": "10 Russell Street",
        "city": "London",
        "openingHours": "10:00 - 14:00 and 17:00 - 20:30"
      },
      "date": "28/7/2023",
      "isDelivery": false,
      "id": 47
    },
    {
      "name": "Julio alberto",
      "store": {
        "id": 5,
        "name": "Monmouth St",
        "address": "11 Monmouth Street",
        "city": "London",
        "openingHours": "10:00 - 14:00 and 17:00 - 20:30"
      },
      "date": "28/7/2023",
      "isDelivery": false,
      "id": 48
    },
    {
      "name": "Julio alberto",
      "store": {
        "id": 4,
        "name": "Covent Garden - Russell St",
        "address": "10 Russell Street",
        "city": "London",
        "openingHours": "10:00 - 14:00 and 17:00 - 20:30"
      },
      "date": "28/7/2023",
      "isDelivery": false,
      "id": 49
    },
    {
      "name": "Julio alberto",
      "store": {
        "id": 2,
        "name": "Store Alcalá",
        "address": "Calle de Alcalá, 21",
        "city": "Madrid",
        "openingHours": "10:00 - 14:00 and 17:00 - 20:30"
      },
      "date": "28/7/2023",
      "isDelivery": false,
      "id": 50
    },
    {
      "name": "Julio alberto",
      "store": {
        "id": 3,
        "name": "Chambers and West Broadway",
        "address": "125 Chambers Street",
        "city": "New York",
        "openingHours": "10:00 - 14:00 and 17:00 - 20:30"
      },
      "date": "1/8/2023",
      "isDelivery": false,
      "id": 51
    }
  ],
  "detailsOrders": [
    {
      "id": 1,
      "orderId": 1,
      "quantity": 10,
      "productName": "Product name"
    },
    {
      "details": [
        {
          "productId": 1,
          "productName": "Essential TypeScript 4: From Beginner to Pro",
          "quantity": 2
        }
      ],
      "orderId": 17,
      "id": 17
    },
    {
      "details": [
        {
          "productId": 7,
          "productName": "Logitech MK270 Wireless Keyboard and Mouse Combo",
          "quantity": 2
        },
        {
          "productId": 8,
          "productName": "External CD Drive USB 3.0 Portable CD DVD +/-RW Drive DVD/CD ROM",
          "quantity": 1
        }
      ],
      "orderId": 18,
      "id": 18
    },
    {
      "details": [
        {
          "productId": 2,
          "productName": "Hackeando el cerebro de tus compradores: PsychoGrowth",
          "quantity": 5,
          "updateStock": 0
        }
      ],
      "orderId": 19,
      "id": 19
    },
    {
      "details": [
        {
          "productId": 1,
          "productName": "Essential TypeScript 4: From Beginner to Pro",
          "quantity": 1,
          "updateStock": 190
        }
      ],
      "orderId": 20,
      "id": 20
    },
    {
      "details": [
        {
          "productId": 1,
          "productName": "Essential TypeScript 4: From Beginner to Pro",
          "quantity": 11,
          "updateStock": 180
        }
      ],
      "orderId": 21,
      "id": 21
    },
    {
      "details": [
        {
          "productId": 2,
          "productName": "Hackeando el cerebro de tus compradores: PsychoGrowth",
          "quantity": 5,
          "updateStock": 0
        }
      ],
      "orderId": 22,
      "id": 22
    },
    {
      "details": [],
      "orderId": 23,
      "id": 23
    },
    {
      "details": [
        {
          "productId": 1,
          "productName": "Essential TypeScript 4: From Beginner to Pro",
          "quantity": 4,
          "updateStock": 176
        }
      ],
      "orderId": 24,
      "id": 24
    },
    {
      "details": [
        {
          "productId": 1,
          "productName": "Essential TypeScript 4: From Beginner to Pro",
          "quantity": 6,
          "updateStock": 170
        }
      ],
      "orderId": 25,
      "id": 25
    },
    {
      "details": [
        {
          "productId": 1,
          "productName": "Essential TypeScript 4: From Beginner to Pro",
          "quantity": 1,
          "updateStock": 168
        }
      ],
      "orderId": 27,
      "id": 26
    },
    {
      "details": [
        {
          "productId": 8,
          "productName": "External CD Drive USB 3.0 Portable CD DVD +/-RW Drive DVD/CD ROM",
          "quantity": 5,
          "updateStock": 10
        },
        {
          "productId": 7,
          "productName": "Logitech MK270 Wireless Keyboard and Mouse Combo",
          "quantity": 7,
          "updateStock": 10
        },
        {
          "productId": 6,
          "productName": "CL3 Rated High-Speed 4K HDMI Cable - 6 Feet",
          "quantity": 5,
          "updateStock": 10
        },
        {
          "productId": 5,
          "productName": "GoPro HERO9 Black - Waterproof Action Camera with Front LCD",
          "quantity": 4,
          "updateStock": 10
        }
      ],
      "orderId": 28,
      "id": 27
    },
    {
      "details": [
        {
          "productId": 1,
          "productName": "Essential TypeScript 4: From Beginner to Pro",
          "quantity": 10,
          "updateStock": 158
        },
        {
          "productId": 2,
          "productName": "Hackeando el cerebro de tus compradores: PsychoGrowth",
          "quantity": 5,
          "updateStock": 0
        },
        {
          "productId": 4,
          "productName": "SanDisk 128GB Ultra MicroSDXC UHS-I Memory Card with Adapter",
          "quantity": 5,
          "updateStock": 4
        },
        {
          "productId": 3,
          "productName": "Angular Routing: Learn To Create client-side and SPA with Routing and Navigation",
          "quantity": 1,
          "updateStock": 0
        },
        {
          "productId": 7,
          "productName": "Logitech MK270 Wireless Keyboard and Mouse Combo",
          "quantity": 10,
          "updateStock": 0
        },
        {
          "productId": 6,
          "productName": "CL3 Rated High-Speed 4K HDMI Cable - 6 Feet",
          "quantity": 10,
          "updateStock": 0
        },
        {
          "productId": 8,
          "productName": "External CD Drive USB 3.0 Portable CD DVD +/-RW Drive DVD/CD ROM",
          "quantity": 10,
          "updateStock": 0
        }
      ],
      "orderId": 29,
      "id": 28
    },
    {
      "details": [
        {
          "productId": 1,
          "productName": "Essential TypeScript 4: From Beginner to Pro",
          "quantity": 8,
          "updateStock": 150
        },
        {
          "productId": 4,
          "productName": "SanDisk 128GB Ultra MicroSDXC UHS-I Memory Card with Adapter",
          "quantity": 4,
          "updateStock": 0
        }
      ],
      "orderId": 30,
      "id": 29
    },
    {
      "details": [
        {
          "productId": 2,
          "productName": "Hackeando el cerebro de tus compradores: PsychoGrowth",
          "quantity": 1,
          "updateStock": 999
        }
      ],
      "orderId": 31,
      "id": 30
    },
    {
      "details": [
        {
          "productId": 1,
          "productName": "Essential TypeScript 4: From Beginner to Pro",
          "quantity": 1,
          "updateStock": 1499
        },
        {
          "productId": 2,
          "productName": "Hackeando el cerebro de tus compradores: PsychoGrowth",
          "quantity": 2,
          "updateStock": 998
        }
      ],
      "orderId": 32,
      "id": 31
    },
    {
      "details": [
        {
          "productId": 2,
          "productName": "Hackeando el cerebro de tus compradores: PsychoGrowth",
          "quantity": 3,
          "updateStock": 995
        }
      ],
      "orderId": 33,
      "id": 32
    },
    {
      "details": [
        {
          "productId": 2,
          "productName": "Hackeando el cerebro de tus compradores: PsychoGrowth",
          "quantity": 3,
          "updateStock": 992
        },
        {
          "productId": 4,
          "productName": "SanDisk 128GB Ultra MicroSDXC UHS-I Memory Card with Adapter",
          "quantity": 2,
          "updateStock": 998
        },
        {
          "productId": 3,
          "productName": "Angular Routing: Learn To Create client-side and SPA with Routing and Navigation",
          "quantity": 1,
          "updateStock": 999
        },
        {
          "productId": 1,
          "productName": "Essential TypeScript 4: From Beginner to Pro",
          "quantity": 1,
          "updateStock": 1498
        }
      ],
      "orderId": 34,
      "id": 33
    },
    {
      "details": [
        {
          "productId": 1,
          "productName": "Essential TypeScript 4: From Beginner to Pro",
          "quantity": 3,
          "updateStock": 1495
        },
        {
          "productId": 2,
          "productName": "Hackeando el cerebro de tus compradores: PsychoGrowth",
          "quantity": 1,
          "updateStock": 991
        },
        {
          "productId": 4,
          "productName": "SanDisk 128GB Ultra MicroSDXC UHS-I Memory Card with Adapter",
          "quantity": 1,
          "updateStock": 997
        }
      ],
      "orderId": 35,
      "id": 34
    },
    {
      "details": [
        {
          "productId": 1,
          "productName": "Essential TypeScript 4: From Beginner to Pro",
          "quantity": 1,
          "updateStock": 1494
        }
      ],
      "orderId": 36,
      "id": 35
    },
    {
      "details": [
        {
          "productId": 1,
          "productName": "Essential TypeScript 4: From Beginner to Pro",
          "quantity": 1,
          "updateStock": 1493
        }
      ],
      "orderId": 37,
      "id": 36
    },
    {
      "details": [
        {
          "productId": 1,
          "productName": "Essential TypeScript 4: From Beginner to Pro",
          "quantity": 1,
          "updateStock": 1492
        }
      ],
      "orderId": 38,
      "id": 37
    },
    {
      "details": [
        {
          "productId": 1,
          "productName": "Essential TypeScript 4: From Beginner to Pro",
          "quantity": 2,
          "updateStock": 1490
        }
      ],
      "orderId": 39,
      "id": 38
    },
    {
      "details": [
        {
          "productId": 1,
          "productName": "Essential TypeScript 4: From Beginner to Pro",
          "quantity": 2,
          "updateStock": 1488
        }
      ],
      "orderId": 40,
      "id": 39
    },
    {
      "details": [
        {
          "productId": 1,
          "productName": "Essential TypeScript 4: From Beginner to Pro",
          "quantity": 1,
          "updateStock": 1487
        }
      ],
      "orderId": 41,
      "id": 40
    },
    {
      "details": [
        {
          "productId": 1,
          "productName": "Essential TypeScript 4: From Beginner to Pro",
          "quantity": 1,
          "updateStock": 1486
        }
      ],
      "orderId": 42,
      "id": 41
    },
    {
      "details": [
        {
          "productId": 1,
          "productName": "Essential TypeScript 4: From Beginner to Pro",
          "quantity": 1,
          "updateStock": 1485
        }
      ],
      "orderId": 43,
      "id": 42
    },
    {
      "details": [
        {
          "productId": 1,
          "productName": "Essential TypeScript 4: From Beginner to Pro",
          "quantity": 1,
          "updateStock": 1484
        }
      ],
      "orderId": 44,
      "id": 43
    },
    {
      "details": [
        {
          "productId": 2,
          "productName": "Hackeando el cerebro de tus compradores: PsychoGrowth",
          "quantity": 1,
          "updateStock": 990
        }
      ],
      "orderId": 45,
      "id": 44
    },
    {
      "details": [
        {
          "productId": 1,
          "productName": "Essential TypeScript 4: From Beginner to Pro",
          "quantity": 2,
          "updateStock": 1482
        }
      ],
      "orderId": 46,
      "id": 45
    },
    {
      "details": [
        {
          "productId": 1,
          "productName": "Essential TypeScript 4: From Beginner to Pro",
          "quantity": 2,
          "updateStock": 1480
        }
      ],
      "orderId": 47,
      "id": 46
    },
    {
      "details": [
        {
          "productId": 1,
          "productName": "Essential TypeScript 4: From Beginner to Pro",
          "quantity": 3,
          "updateStock": 1477
        }
      ],
      "orderId": 48,
      "id": 47
    },
    {
      "details": [
        {
          "productId": 1,
          "productName": "Essential TypeScript 4: From Beginner to Pro",
          "quantity": 1,
          "updateStock": 1476
        }
      ],
      "orderId": 49,
      "id": 48
    },
    {
      "details": [
        {
          "productId": 2,
          "productName": "Hackeando el cerebro de tus compradores: PsychoGrowth",
          "quantity": 4,
          "updateStock": 986
        }
      ],
      "orderId": 50,
      "id": 49
    },
    {
      "details": [
        {
          "productId": 1,
          "productName": "Essential TypeScript 4: From Beginner to Pro",
          "quantity": 2,
          "updateStock": 1474
        }
      ],
      "orderId": 51,
      "id": 50
    }
  ]
}
